<?xml version="1.0" encoding="UTF-8"?>
<gpx version="1.0">
	<name>Example gpx</name>
    <wpt lat="64.437577" lon="-21.560068">
        <name>Þórisstaðir</name>
        <desc>Þórisstöðum<br/>301 Akranes<br/><br/>Open between<br/>1 Apríl - 15 September<br/></desc>
        <url>https://www.campingcard.is/thorisstadir/</url>
    </wpt>
    <wpt lat="64.92281" lon="-23.26045">
        <name>Grundarfjörður</name>
        <desc><br/>350 Grundarfjörður<br/><br/>Open between<br/>1. June - 15. September<br/></desc>
        <url>https://www.campingcard.is/grundarfjordur/</url>
    </wpt>
    <wpt lat="64.804719" lon="-23.001162">
        <name>Traðir, á eyrunum</name>
        <desc>Traðir, Snæfellsnesvegur<br/>356 Snæfellsbær<br/><br/>Open between<br/>1. April –30. October<br/></desc>
        <url>https://www.campingcard.is/tjaldsvaedid-tradir/</url>
    </wpt>
    <wpt lat="63.8326002" lon="-20.3927595">
        <name>Hella Gaddstaðaflatir</name>
        <desc>Gaddstaðaflötum<br/>850 Hella<br/><br/>Open between<br/>15 May - 15 September<br/></desc>
        <url>https://www.campingcard.is/hella-gaddstadaflatir/</url>
    </wpt>
    <wpt lat="65.9725542" lon="-18.544043">
        <name>Dalvík</name>
        <desc>Svarfaðarbraut<br/>620 Dalvík<br/><br/>Open between<br/>15 Mai - 15 September<br/></desc>
        <url>https://www.campingcard.is/dalvik/</url>
    </wpt>
    <wpt lat="66.4520211" lon="-15.9644089">
        <name>Raufarhöfn</name>
        <desc>nearby Skólabraut<br/>675 Raufarhöfn<br/><br/>Open between<br/>1. Juni –15. September<br/></desc>
        <url>https://www.campingcard.is/raufarhofn/</url>
    </wpt>
    <wpt lat="66.301255" lon="-16.442767">
        <name>Kópasker</name>
        <desc>Austurtröð 4<br/>670 Kópasker<br/><br/>Open between<br/>1. May - 15. September<br/></desc>
        <url>https://www.campingcard.is/kopasker/</url>
    </wpt>
    <wpt lat="64.038935" lon="-22.696766">
        <name>SANDGERÐI</name>
        <desc>Byggðavegi<br/>245 Sandgerði<br/><br/>Open between<br/>1. April–30. September.<br/></desc>
        <url>https://www.campingcard.is/sandgerdi/</url>
    </wpt>
    <wpt lat="63.843147" lon="-22.420415">
        <name>GRINDAVÍK</name>
        <desc>Austurvegur 26<br/>240 Grindavík<br/><br/>Open between<br/>15. May–30. September<br/></desc>
        <url>https://www.campingcard.is/grindavik/</url>
    </wpt>
    <wpt lat="63.852875" lon="-21.383638">
        <name>ÞORLÁKSHÖFN</name>
        <desc>Hafnarberg 41 (by the sports center)<br/>815 Þorlákshöfn<br/><br/>Open between<br/>15. May –15. September<br/></desc>
        <url>https://www.campingcard.is/thorlakshofn/</url>
    </wpt>
    <wpt lat="63.835315" lon="-21.056631">
        <name>STOKKSEYRI</name>
        <desc>Sólvellir<br/>825 Stokkseyri<br/><br/>Open between<br/>1. May –1. October<br/></desc>
        <url>https://www.campingcard.is/stokkseyri/</url>
    </wpt>
    <wpt lat="64.087282" lon="-20.431266">
        <name>ÁLFASKEIÐ</name>
        <desc>Syðra Langholti<br/>845 Flúðum<br/><br/>Open between<br/>1. June–1. September<br/></desc>
        <url>https://www.campingcard.is/alfaskeid/</url>
    </wpt>
    <wpt lat="63.726933" lon="-19.985665">
        <name>LANGBRÓK</name>
        <desc>Fljótshlíð<br/>861 Hvolsvöllur<br/><br/>Open between<br/>1. May –1. October<br/></desc>
        <url>https://www.campingcard.is/langbrok/</url>
    </wpt>
    <wpt lat="63.800155" lon="-18.0847966">
        <name>KLEIFARMÖRK</name>
        <desc>Kleifar-Mörk<br/>880 Kirkjubæjarklaustur<br/><br/>Open between<br/>1. June –31. August<br/></desc>
        <url>https://www.campingcard.is/kleifarmork/</url>
    </wpt>
    <wpt lat="64.832313" lon="-13.861504">
        <name>STÖÐVARFJÖRÐUR</name>
        <desc>Fjarðarbraut<br/>755 Stöðvarfirði<br/><br/>Open between<br/>15 May – 15 September<br/></desc>
        <url>https://www.campingcard.is/stodvarfjordur/</url>
    </wpt>
    <wpt lat="64.936661" lon="-14.036721">
        <name>FÁSKRÚÐSFJÖRÐUR</name>
        <desc>Óseyri<br/>750 Fáskrúðsfirði<br/><br/>Open between<br/>15 May – 15 September<br/></desc>
        <url>https://www.campingcard.is/faskrudsfjordur/</url>
    </wpt>
    <wpt lat="65.034372" lon="-14.241071">
        <name>REYÐARFJÖRÐUR</name>
        <desc>Búðareyri<br/>730 Reyðarfirði<br/><br/>Open between<br/>15 April – 15 September<br/></desc>
        <url>https://www.campingcard.is/reydarfjordur/</url>
    </wpt>
    <wpt lat="65.1497396" lon="-13.6822644">
        <name>NORÐFJÖRÐUR</name>
        <desc>Víðimýri<br/>740 Neskaupstað<br/><br/>Open between<br/>15 May – 15 September<br/></desc>
        <url>https://www.campingcard.is/nordfjordur/</url>
    </wpt>
    <wpt lat="65.260433" lon="-14.010626">
        <name>SEYÐISFJÖRÐUR</name>
        <desc>Ránargata 1<br/>710 Seyðisfjörður<br/><br/>Open between<br/>1. May –30. September<br/></desc>
        <url>https://www.campingcard.is/seydisfjordur/</url>
    </wpt>
    <wpt lat="66.201023" lon="-15.33838">
        <name>ÞÓRSHÖFN</name>
        <desc>Miðholt<br/>680 Þórshöfn<br/><br/>Open between<br/>1.June –31. August<br/></desc>
        <url>https://www.campingcard.is/thorshofn/</url>
    </wpt>
    <wpt lat="65.374641" lon="-15.884409">
        <name>MÖÐRUDALUR &#8211; FJALLADÝRÐ</name>
        <desc>Möðrudalur<br/>601 Mývatn<br/><br/>Open between<br/>20. May –10 September<br/></desc>
        <url>https://www.campingcard.is/fjalladyrd/</url>
    </wpt>
    <wpt lat="65.88925" lon="-17.320383">
        <name>HEIÐARBÆR</name>
        <desc>Heiðarbær Reykjahverfi<br/>641 Húsavík<br/><br/>Open between<br/>1. June –10. September<br/></desc>
        <url>https://www.campingcard.is/heidarbaer/</url>
    </wpt>
    <wpt lat="65.6983991" lon="-17.9701233">
        <name>Lónsá</name>
        <desc>Lónsá<br/>601 Akureyri<br/><br/>Open between<br/>June - 15 September<br/></desc>
        <url>https://www.campingcard.is/lonsa/</url>
    </wpt>
    <wpt lat="66.071186" lon="-18.648932">
        <name>ÓLAFSFJÖRÐUR</name>
        <desc>Ólafsvegi 4<br/>625 Ólafsfirði<br/><br/>Open between<br/>12. May –15. October<br/></desc>
        <url>https://www.campingcard.is/olafsfjordur/</url>
    </wpt>
    <wpt lat="66.15009" lon="-18.908801">
        <name>SIGLUFJÖRÐUR</name>
        <desc>Gránugötu 24<br/>580 Siglufjörður<br/><br/>Open between<br/>12. May  – 15 October<br/></desc>
        <url>https://www.campingcard.is/siglufjordur-2/</url>
    </wpt>
    <wpt lat="65.748487" lon="-19.647798">
        <name>SAUÐÁRKRÓKUR</name>
        <desc>Sauðárkrókur<br/>550 Sauðárkróki<br/><br/>Open between<br/>15 May - 15 September<br/></desc>
        <url>https://www.campingcard.is/saudarkrokur/</url>
    </wpt>
    <wpt lat="65.824945" lon="-20.294587">
        <name>SKAGASTRÖND</name>
        <desc>Hólabraut 35<br/>545 Skagaströnd<br/><br/>Open between<br/>1 June – 10 September<br/></desc>
        <url>https://www.campingcard.is/skagastrond/</url>
    </wpt>
    <wpt lat="65.402297" lon="-20.9295">
        <name>HVAMMSTANGI</name>
        <desc>Kirkjuhvammur<br/>530 Hvammstangi<br/><br/>Open between<br/>15 May –15 October<br/></desc>
        <url>https://www.campingcard.is/hvammstangi/</url>
    </wpt>
    <wpt lat="65.69167" lon="-21.439256">
        <name>DRANGSNES</name>
        <desc>Drangsnes<br/>520 Drangsnes<br/><br/>Open between<br/>1 May - 30 September<br/></desc>
        <url>https://www.campingcard.is/drangsnes/</url>
    </wpt>
    <wpt lat="66.06092" lon="-23.199073">
        <name>TUNGUDALUR</name>
        <desc>Tungudalur<br/>400 Ísafirði<br/><br/>Open between<br/>15 May - 15 September<br/></desc>
        <url>https://www.campingcard.is/tungudalur/</url>
    </wpt>
    <wpt lat="66.155042" lon="-23.253304">
        <name>BOLUNGARVÍK</name>
        <desc>Bolungarvík, by the Swimmingpool<br/>415 Bolungarvík<br/><br/>Open between<br/>1 June –30 September<br/></desc>
        <url>https://www.campingcard.is/bolungarvik/</url>
    </wpt>
    <wpt lat="65.577382" lon="-23.172655">
        <name>FLÓKALUNDUR</name>
        <desc>Vatnsfjörður<br/>451 Patreksfjörður<br/><br/>Open between<br/>1. júní–10. september<br/></desc>
        <url>https://www.campingcard.is/flokalundur/</url>
    </wpt>
    <wpt lat="65.44628" lon="-22.20206">
        <name>GRETTISLAUG Á REYKHÓLUM</name>
        <desc>Grettislaug á Reykhólum<br/>380 Reykhólahreppur<br/><br/>Open between<br/>1 May –30 September<br/></desc>
        <url>https://www.campingcard.is/reykholahreppur/</url>
    </wpt>
    <wpt lat="64.687899" lon="-21.588642">
        <name>Varmaland</name>
        <desc>Varmaland<br/>311 Borgarnes<br/><br/>Open between<br/>1 June - 31 August<br/></desc>
        <url>https://www.campingcard.is/varmaland/</url>
    </wpt>
    <wpt lat="64.304558" lon="-20.199866">
        <name>Skjól</name>
        <desc>Kjóastaðir<br/>801 Geysir<br/><br/>Open between<br/>1 June - 15 September<br/></desc>
        <url>https://www.campingcard.is/skjol/</url>
    </wpt>
    <wpt lat="65.0718588" lon="-14.0164948">
        <name>Eskifjörður</name>
        <desc>Strandgata<br/>735 Eskifjörður<br/><br/>Open between<br/>15 May – 15 September<br/></desc>
        <url>https://www.campingcard.is/eskifjordur/</url>
    </wpt>
</gpx>
